{
"type": "FeatureCollection",
"name": "Refineries",
"crs": { "type": "name", "properties": { "name": "urn:ogc:def:crs:OGC:1.3:CRS84" } },
"features": [
{ "type": "Feature", "properties": { "Name": "Ballsh", "Country": "Albania", "Owners": "ARMO", "P C [kbbl\/d]": 20.0, "P C [Mt\/a]": 1.0, "Status": "Open", "Latitude": 40.606459, "Longitude": 19.748847, "Website": null, "Source": "http:\/\/abarrelfull.wikidot.com\/ballsh-refinery, https:\/\/en.wikipedia.org\/wiki\/List_of_oil_refineries#Europe" }, "geometry": { "type": "Point", "coordinates": [ 19.748847, 40.606459 ] } },
{ "type": "Feature", "properties": { "Name": "Schwechat", "Country": "Austria", "Owners": "OMV", "P C [kbbl\/d]": 193.7, "P C [Mt\/a]": 9.7, "Status": "Open", "Latitude": 48.148277, "Longitude": 16.49484, "Website": null, "Source": "https:\/\/www.concawe.eu\/refineries-map\/" }, "geometry": { "type": "Point", "coordinates": [ 16.49484, 48.148277 ] } },
{ "type": "Feature", "properties": { "Name": "Mozyr", "Country": "Belarus", "Owners": "Slavneft, Government of Republic Belarus", "P C [kbbl\/d]": 95.0, "P C [Mt\/a]": 4.75, "Status": "Open", "Latitude": 51.902766, "Longitude": 29.334162, "Website": "http:\/\/www.slavneft.ru\/", "Source": "http:\/\/abarrelfull.wikidot.com\/mozyr-refinery" }, "geometry": { "type": "Point", "coordinates": [ 29.334162, 51.902766 ] } },
{ "type": "Feature", "properties": { "Name": "Novopolotsk", "Country": "Belarus", "Owners": "Naftan", "P C [kbbl\/d]": 220.0, "P C [Mt\/a]": 11.0, "Status": "Open", "Latitude": 55.523704, "Longitude": 28.555989, "Website": "http:\/\/www.naftan.by\/ru\/default_ru.aspx", "Source": "http:\/\/abarrelfull.wikidot.com\/novopolotsk-refinery" }, "geometry": { "type": "Point", "coordinates": [ 28.555989, 55.523704 ] } },
{ "type": "Feature", "properties": { "Name": "Antwerp", "Country": "Belgium", "Owners": "ExxonMobil", "P C [kbbl\/d]": 307.0, "P C [Mt\/a]": 15.4, "Status": "Open", "Latitude": 51.25299, "Longitude": 4.341237, "Website": null, "Source": "https:\/\/www.concawe.eu\/refineries-map\/" }, "geometry": { "type": "Point", "coordinates": [ 4.341237, 51.25299 ] } },
{ "type": "Feature", "properties": { "Name": "Antwerp", "Country": "Belgium", "Owners": "TOTAL", "P C [kbbl\/d]": 338.0, "P C [Mt\/a]": 16.9, "Status": "Open", "Latitude": 51.27415, "Longitude": 4.320981, "Website": null, "Source": "https:\/\/www.concawe.eu\/refineries-map\/" }, "geometry": { "type": "Point", "coordinates": [ 4.320981, 51.27415 ] } },
{ "type": "Feature", "properties": { "Name": "Antwerp", "Country": "Belgium", "Owners": "Gunvor", "P C [kbbl\/d]": 107.0, "P C [Mt\/a]": 5.4, "Status": "Open", "Latitude": 51.33225, "Longitude": 4.285283, "Website": null, "Source": "https:\/\/www.concawe.eu\/refineries-map\/" }, "geometry": { "type": "Point", "coordinates": [ 4.285283, 51.33225 ] } },
{ "type": "Feature", "properties": { "Name": "Antwerp", "Country": "Belgium", "Owners": "ATPC", "P C [kbbl\/d]": 24.0, "P C [Mt\/a]": 1.2, "Status": "Open", "Latitude": 51.25256, "Longitude": 4.367158, "Website": null, "Source": "https:\/\/www.concawe.eu\/refineries-map\/" }, "geometry": { "type": "Point", "coordinates": [ 4.367158, 51.25256 ] } },
{ "type": "Feature", "properties": { "Name": "Bosanski Brod", "Country": "Bosnia and Herzegovina", "Owners": "(Oil Refinery Brod) Zarubezneft", "P C [kbbl\/d]": 30.0, "P C [Mt\/a]": 1.5, "Status": "Open", "Latitude": 45.127814, "Longitude": 17.984198, "Website": "https:\/\/rafinerija.com\/?lang=en-US", "Source": "http:\/\/abarrelfull.wikidot.com\/bosanski-brod-refinery" }, "geometry": { "type": "Point", "coordinates": [ 17.984198, 45.127814 ] } },
{ "type": "Feature", "properties": { "Name": "Burgas", "Country": "Bulgaria", "Owners": "Lukoil", "P C [kbbl\/d]": 195.0, "P C [Mt\/a]": 9.8, "Status": "Open", "Latitude": 42.542176, "Longitude": 27.341511, "Website": null, "Source": "https:\/\/www.concawe.eu\/refineries-map\/" }, "geometry": { "type": "Point", "coordinates": [ 27.341511, 42.542176 ] } },
{ "type": "Feature", "properties": { "Name": "Rijeka", "Country": "Croatia", "Owners": "INA (MOL Group)", "P C [kbbl\/d]": 90.0, "P C [Mt\/a]": 4.5, "Status": "Open", "Latitude": 45.285824, "Longitude": 14.533957, "Website": null, "Source": "https:\/\/www.concawe.eu\/refineries-map\/" }, "geometry": { "type": "Point", "coordinates": [ 14.533957, 45.285824 ] } },
{ "type": "Feature", "properties": { "Name": "Sisak", "Country": "Croatia", "Owners": "INA (MOL Group)", "P C [kbbl\/d]": 44.1, "P C [Mt\/a]": 2.2, "Status": "Open", "Latitude": 45.453164, "Longitude": 16.407247, "Website": null, "Source": "https:\/\/www.concawe.eu\/refineries-map\/" }, "geometry": { "type": "Point", "coordinates": [ 16.407247, 45.453164 ] } },
{ "type": "Feature", "properties": { "Name": "Kolin", "Country": "Czech Republic", "Owners": null, "P C [kbbl\/d]": 2.5, "P C [Mt\/a]": 0.1, "Status": "Closed", "Latitude": null, "Longitude": null, "Website": null, "Source": "https:\/\/www.concawe.eu\/refineries-map\/" }, "geometry": null },
{ "type": "Feature", "properties": { "Name": "Kralupy", "Country": "Czech Republic", "Owners": "CRC (PKN Orlen)", "P C [kbbl\/d]": 66.0, "P C [Mt\/a]": 3.3, "Status": "Open", "Latitude": 50.257911, "Longitude": 14.321769, "Website": null, "Source": "https:\/\/www.concawe.eu\/refineries-map\/" }, "geometry": { "type": "Point", "coordinates": [ 14.321769, 50.257911 ] } },
{ "type": "Feature", "properties": { "Name": "Litvinov", "Country": "Czech Republic", "Owners": "CRC (PKN Orlen)", "P C [kbbl\/d]": 108.0, "P C [Mt\/a]": 5.4, "Status": "Open", "Latitude": 50.569231, "Longitude": 13.599713, "Website": null, "Source": "https:\/\/www.concawe.eu\/refineries-map\/" }, "geometry": { "type": "Point", "coordinates": [ 13.599713, 50.569231 ] } },
{ "type": "Feature", "properties": { "Name": "Paramo Pardubice", "Country": "Czech Republic", "Owners": null, "P C [kbbl\/d]": 15.0, "P C [Mt\/a]": 0.8, "Status": "Closed", "Latitude": 50.026546, "Longitude": 15.749018, "Website": null, "Source": "https:\/\/www.concawe.eu\/refineries-map\/" }, "geometry": { "type": "Point", "coordinates": [ 15.749018, 50.026546 ] } },
{ "type": "Feature", "properties": { "Name": "Fredericia", "Country": "Denmark", "Owners": "Shell", "P C [kbbl\/d]": 63.0, "P C [Mt\/a]": 3.2, "Status": "Open", "Latitude": 55.591415, "Longitude": 9.752386, "Website": null, "Source": "https:\/\/www.concawe.eu\/refineries-map\/" }, "geometry": { "type": "Point", "coordinates": [ 9.752386, 55.591415 ] } },
{ "type": "Feature", "properties": { "Name": "Kalundborg", "Country": "Denmark", "Owners": "Statoil (Avista Oil)", "P C [kbbl\/d]": 106.4, "P C [Mt\/a]": 5.3, "Status": "Open", "Latitude": 55.672699, "Longitude": 11.098121, "Website": null, "Source": "https:\/\/www.concawe.eu\/refineries-map\/" }, "geometry": { "type": "Point", "coordinates": [ 11.098121, 55.672699 ] } },
{ "type": "Feature", "properties": { "Name": "Naantali", "Country": "Finland", "Owners": "Neste", "P C [kbbl\/d]": 55.6, "P C [Mt\/a]": 2.8, "Status": "Open", "Latitude": 60.450935, "Longitude": 22.088577, "Website": null, "Source": "https:\/\/www.concawe.eu\/refineries-map\/" }, "geometry": { "type": "Point", "coordinates": [ 22.088577, 60.450935 ] } },
{ "type": "Feature", "properties": { "Name": "Porvoo", "Country": "Finland", "Owners": "Neste", "P C [kbbl\/d]": 205.0, "P C [Mt\/a]": 10.3, "Status": "Open", "Latitude": 60.313522, "Longitude": 25.5221, "Website": null, "Source": "https:\/\/www.concawe.eu\/refineries-map\/" }, "geometry": { "type": "Point", "coordinates": [ 25.5221, 60.313522 ] } },
{ "type": "Feature", "properties": { "Name": "Berre", "Country": "France", "Owners": null, "P C [kbbl\/d]": 105.5, "P C [Mt\/a]": 5.3, "Status": "Closed", "Latitude": null, "Longitude": null, "Website": null, "Source": "https:\/\/www.concawe.eu\/refineries-map\/" }, "geometry": null },
{ "type": "Feature", "properties": { "Name": "Donges", "Country": "France", "Owners": "TOTAL", "P C [kbbl\/d]": 219.0, "P C [Mt\/a]": 11.0, "Status": "Open", "Latitude": 47.316319, "Longitude": -2.066362, "Website": null, "Source": "https:\/\/www.concawe.eu\/refineries-map\/" }, "geometry": { "type": "Point", "coordinates": [ -2.066362, 47.316319 ] } },
{ "type": "Feature", "properties": { "Name": "Dunkerque", "Country": "France", "Owners": "SRD", "P C [kbbl\/d]": 22.8, "P C [Mt\/a]": 1.1, "Status": "Closed", "Latitude": null, "Longitude": null, "Website": null, "Source": "https:\/\/www.concawe.eu\/refineries-map\/" }, "geometry": null },
{ "type": "Feature", "properties": { "Name": "Dunkerque", "Country": "France", "Owners": null, "P C [kbbl\/d]": 134.9, "P C [Mt\/a]": 6.7, "Status": "Closed", "Latitude": null, "Longitude": null, "Website": null, "Source": "https:\/\/www.concawe.eu\/refineries-map\/" }, "geometry": null },
{ "type": "Feature", "properties": { "Name": "Feyzin", "Country": "France", "Owners": "TOTAL", "P C [kbbl\/d]": 109.3, "P C [Mt\/a]": 5.5, "Status": "Open", "Latitude": 45.674236, "Longitude": 4.849375, "Website": null, "Source": "https:\/\/www.concawe.eu\/refineries-map\/" }, "geometry": { "type": "Point", "coordinates": [ 4.849375, 45.674236 ] } },
{ "type": "Feature", "properties": { "Name": "Fos", "Country": "France", "Owners": "ExxonMobil", "P C [kbbl\/d]": 133.0, "P C [Mt\/a]": 6.7, "Status": "Open", "Latitude": 43.4512, "Longitude": 4.923528, "Website": null, "Source": "https:\/\/www.concawe.eu\/refineries-map\/" }, "geometry": { "type": "Point", "coordinates": [ 4.923528, 43.4512 ] } },
{ "type": "Feature", "properties": { "Name": "Gonfreville", "Country": "France", "Owners": "TOTAL", "P C [kbbl\/d]": 246.9, "P C [Mt\/a]": 12.3, "Status": "Open", "Latitude": 49.487013, "Longitude": 0.22544, "Website": null, "Source": "https:\/\/www.concawe.eu\/refineries-map\/" }, "geometry": { "type": "Point", "coordinates": [ 0.22544, 49.487013 ] } },
{ "type": "Feature", "properties": { "Name": "Grandpuits", "Country": "France", "Owners": "TOTAL", "P C [kbbl\/d]": 101.5, "P C [Mt\/a]": 5.1, "Status": "Open", "Latitude": 48.589578, "Longitude": 2.946381, "Website": null, "Source": "https:\/\/www.concawe.eu\/refineries-map\/" }, "geometry": { "type": "Point", "coordinates": [ 2.946381, 48.589578 ] } },
{ "type": "Feature", "properties": { "Name": "La Mede", "Country": "France", "Owners": "TOTAL", "P C [kbbl\/d]": 153.0, "P C [Mt\/a]": 7.7, "Status": "Closed", "Latitude": 43.399204, "Longitude": 5.102007, "Website": null, "Source": "https:\/\/www.concawe.eu\/refineries-map\/" }, "geometry": { "type": "Point", "coordinates": [ 5.102007, 43.399204 ] } },
{ "type": "Feature", "properties": { "Name": "Lavera", "Country": "France", "Owners": "Petroineos (Ineos\/Petrochina)", "P C [kbbl\/d]": 207.1, "P C [Mt\/a]": 10.4, "Status": "Open", "Latitude": 43.386732, "Longitude": 5.015489, "Website": null, "Source": "https:\/\/www.concawe.eu\/refineries-map\/" }, "geometry": { "type": "Point", "coordinates": [ 5.015489, 43.386732 ] } },
{ "type": "Feature", "properties": { "Name": "Petit Couronne", "Country": "France", "Owners": null, "P C [kbbl\/d]": 141.0, "P C [Mt\/a]": 7.1, "Status": "Closed", "Latitude": null, "Longitude": null, "Website": null, "Source": "https:\/\/www.concawe.eu\/refineries-map\/" }, "geometry": null },
{ "type": "Feature", "properties": { "Name": "Port-Jerome", "Country": "France", "Owners": "ExxonMobil", "P C [kbbl\/d]": 236.0, "P C [Mt\/a]": 11.8, "Status": "Open", "Latitude": 49.481325, "Longitude": 0.552483, "Website": null, "Source": "https:\/\/www.concawe.eu\/refineries-map\/" }, "geometry": { "type": "Point", "coordinates": [ 0.552483, 49.481325 ] } },
{ "type": "Feature", "properties": { "Name": "Reichstett", "Country": "France", "Owners": null, "P C [kbbl\/d]": 78.0, "P C [Mt\/a]": 3.9, "Status": "Closed", "Latitude": 48.657248, "Longitude": 7.757518, "Website": null, "Source": "https:\/\/www.concawe.eu\/refineries-map\/" }, "geometry": { "type": "Point", "coordinates": [ 7.757518, 48.657248 ] } },
{ "type": "Feature", "properties": { "Name": "SARA", "Country": "France", "Owners": "SARA", "P C [kbbl\/d]": 18.0, "P C [Mt\/a]": 0.9, "Status": "Open", "Latitude": 14.611397, "Longitude": -61.03232, "Website": null, "Source": "https:\/\/www.concawe.eu\/refineries-map\/" }, "geometry": { "type": "Point", "coordinates": [ -61.03232, 14.611397 ] } },
{ "type": "Feature", "properties": { "Name": "Bayern oil", "Country": "Germany", "Owners": "BP\/Ruhr Oel\/ENI\/Varo Energy", "P C [kbbl\/d]": 215.0, "P C [Mt\/a]": 10.8, "Status": "Open", "Latitude": 48.784747, "Longitude": 11.761996, "Website": null, "Source": "https:\/\/www.concawe.eu\/refineries-map\/" }, "geometry": { "type": "Point", "coordinates": [ 11.761996, 48.784747 ] } },
{ "type": "Feature", "properties": { "Name": "Brunsbuttel", "Country": "Germany", "Owners": "TOTAL", "P C [kbbl\/d]": 15.8, "P C [Mt\/a]": 0.8, "Status": "Open", "Latitude": 53.910481, "Longitude": 9.183089, "Website": null, "Source": "https:\/\/www.concawe.eu\/refineries-map\/" }, "geometry": { "type": "Point", "coordinates": [ 9.183089, 53.910481 ] } },
{ "type": "Feature", "properties": { "Name": "Burghausen", "Country": "Germany", "Owners": "OMV", "P C [kbbl\/d]": 74.0, "P C [Mt\/a]": 3.7, "Status": "Open", "Latitude": 48.193372, "Longitude": 12.829728, "Website": null, "Source": "https:\/\/www.concawe.eu\/refineries-map\/" }, "geometry": { "type": "Point", "coordinates": [ 12.829728, 48.193372 ] } },
{ "type": "Feature", "properties": { "Name": "Gelsenkirchen", "Country": "Germany", "Owners": "Ruhr Oel", "P C [kbbl\/d]": 251.5, "P C [Mt\/a]": 12.6, "Status": "Open", "Latitude": 51.59703, "Longitude": 7.028409, "Website": null, "Source": "https:\/\/www.concawe.eu\/refineries-map\/" }, "geometry": { "type": "Point", "coordinates": [ 7.028409, 51.59703 ] } },
{ "type": "Feature", "properties": { "Name": "Hamburg\/Neuhof", "Country": "Germany", "Owners": "H&R", "P C [kbbl\/d]": 15.3, "P C [Mt\/a]": 0.8, "Status": "Open", "Latitude": 53.514818, "Longitude": 9.952969, "Website": null, "Source": "https:\/\/www.concawe.eu\/refineries-map\/" }, "geometry": { "type": "Point", "coordinates": [ 9.952969, 53.514818 ] } },
{ "type": "Feature", "properties": { "Name": "Harburg", "Country": "Germany", "Owners": null, "P C [kbbl\/d]": 107.0, "P C [Mt\/a]": 5.4, "Status": "Closed", "Latitude": null, "Longitude": null, "Website": null, "Source": "https:\/\/www.concawe.eu\/refineries-map\/" }, "geometry": null },
{ "type": "Feature", "properties": { "Name": "Harburg (Holborn)", "Country": "Germany", "Owners": "Tamoil", "P C [kbbl\/d]": 78.0, "P C [Mt\/a]": 3.9, "Status": "Open", "Latitude": 53.475571, "Longitude": 9.950632, "Website": null, "Source": "https:\/\/www.concawe.eu\/refineries-map\/" }, "geometry": { "type": "Point", "coordinates": [ 9.950632, 53.475571 ] } },
{ "type": "Feature", "properties": { "Name": "Heide", "Country": "Germany", "Owners": "RHG (Klesch &amp; Co.)", "P C [kbbl\/d]": 90.0, "P C [Mt\/a]": 4.5, "Status": "Open", "Latitude": 54.157901, "Longitude": 9.080654, "Website": null, "Source": "https:\/\/www.concawe.eu\/refineries-map\/" }, "geometry": { "type": "Point", "coordinates": [ 9.080654, 54.157901 ] } },
{ "type": "Feature", "properties": { "Name": "Ingolstadt", "Country": "Germany", "Owners": "Gunvor", "P C [kbbl\/d]": 110.0, "P C [Mt\/a]": 5.5, "Status": "Open", "Latitude": 48.791438, "Longitude": 11.482404, "Website": null, "Source": "https:\/\/www.concawe.eu\/refineries-map\/" }, "geometry": { "type": "Point", "coordinates": [ 11.482404, 48.791438 ] } },
{ "type": "Feature", "properties": { "Name": "Karlsruhe", "Country": "Germany", "Owners": "MIRO (Ruhr Oel\/Phillips66\/ExxonMobil\/Shell)", "P C [kbbl\/d]": 310.0, "P C [Mt\/a]": 15.5, "Status": "Open", "Latitude": 49.053263, "Longitude": 8.336457, "Website": null, "Source": "https:\/\/www.concawe.eu\/refineries-map\/" }, "geometry": { "type": "Point", "coordinates": [ 8.336457, 49.053263 ] } },
{ "type": "Feature", "properties": { "Name": "Leuna", "Country": "Germany", "Owners": "TOTAL", "P C [kbbl\/d]": 227.4, "P C [Mt\/a]": 11.4, "Status": "Open", "Latitude": 51.281662, "Longitude": 11.986328, "Website": null, "Source": "https:\/\/www.concawe.eu\/refineries-map\/" }, "geometry": { "type": "Point", "coordinates": [ 11.986328, 51.281662 ] } },
{ "type": "Feature", "properties": { "Name": "Lingen", "Country": "Germany", "Owners": "BP", "P C [kbbl\/d]": 91.8, "P C [Mt\/a]": 4.6, "Status": "Open", "Latitude": 52.558637, "Longitude": 7.309847, "Website": null, "Source": "https:\/\/www.concawe.eu\/refineries-map\/" }, "geometry": { "type": "Point", "coordinates": [ 7.309847, 52.558637 ] } },
{ "type": "Feature", "properties": { "Name": "Rheinland", "Country": "Germany", "Owners": "Shell", "P C [kbbl\/d]": 325.0, "P C [Mt\/a]": 16.3, "Status": "Open", "Latitude": 50.855308, "Longitude": 6.976681, "Website": null, "Source": "https:\/\/www.concawe.eu\/refineries-map\/" }, "geometry": { "type": "Point", "coordinates": [ 6.976681, 50.855308 ] } },
{ "type": "Feature", "properties": { "Name": "Salzbergen", "Country": "Germany", "Owners": "H&R", "P C [kbbl\/d]": 6.6, "P C [Mt\/a]": 0.3, "Status": "Open", "Latitude": 52.316835, "Longitude": 7.351857, "Website": null, "Source": "https:\/\/www.concawe.eu\/refineries-map\/" }, "geometry": { "type": "Point", "coordinates": [ 7.351857, 52.316835 ] } },
{ "type": "Feature", "properties": { "Name": "Schwedt", "Country": "Germany", "Owners": "PCK (Ruhr Oel\/ENI\/ Shell\/ Rosneft)", "P C [kbbl\/d]": 220.0, "P C [Mt\/a]": 11.0, "Status": "Open", "Latitude": 53.094146, "Longitude": 14.231485, "Website": null, "Source": "https:\/\/www.concawe.eu\/refineries-map\/" }, "geometry": { "type": "Point", "coordinates": [ 14.231485, 53.094146 ] } },
{ "type": "Feature", "properties": { "Name": "Wilhelmshaven", "Country": "Germany", "Owners": null, "P C [kbbl\/d]": 260.0, "P C [Mt\/a]": 13.0, "Status": "Closed", "Latitude": null, "Longitude": null, "Website": null, "Source": "https:\/\/www.concawe.eu\/refineries-map\/" }, "geometry": null },
{ "type": "Feature", "properties": { "Name": "Aghii Theodori", "Country": "Greece", "Owners": "Motor Hellas", "P C [kbbl\/d]": 110.0, "P C [Mt\/a]": 5.5, "Status": "Open", "Latitude": 37.921807, "Longitude": 23.072517, "Website": null, "Source": "https:\/\/www.concawe.eu\/refineries-map\/" }, "geometry": { "type": "Point", "coordinates": [ 23.072517, 37.921807 ] } },
{ "type": "Feature", "properties": { "Name": "Aspropyrgos", "Country": "Greece", "Owners": "Hellenic", "P C [kbbl\/d]": 146.5, "P C [Mt\/a]": 7.3, "Status": "Open", "Latitude": 38.030831, "Longitude": 23.599513, "Website": null, "Source": "https:\/\/www.concawe.eu\/refineries-map\/" }, "geometry": { "type": "Point", "coordinates": [ 23.599513, 38.030831 ] } },
{ "type": "Feature", "properties": { "Name": "Elefsis", "Country": "Greece", "Owners": "Hellenic", "P C [kbbl\/d]": 100.0, "P C [Mt\/a]": 5.0, "Status": "Open", "Latitude": null, "Longitude": null, "Website": null, "Source": "https:\/\/www.concawe.eu\/refineries-map\/" }, "geometry": null },
{ "type": "Feature", "properties": { "Name": "Thessaloniki", "Country": "Greece", "Owners": "Hellenic", "P C [kbbl\/d]": 66.5, "P C [Mt\/a]": 3.3, "Status": "Open", "Latitude": null, "Longitude": null, "Website": null, "Source": "https:\/\/www.concawe.eu\/refineries-map\/" }, "geometry": null },
{ "type": "Feature", "properties": { "Name": "Szazhalombata: Danube refinery", "Country": "Hungary", "Owners": "MOL", "P C [kbbl\/d]": 161.0, "P C [Mt\/a]": 8.1, "Status": "Open", "Latitude": 47.297789, "Longitude": 18.888885, "Website": null, "Source": "https:\/\/www.concawe.eu\/refineries-map\/" }, "geometry": { "type": "Point", "coordinates": [ 18.888885, 47.297789 ] } },
{ "type": "Feature", "properties": { "Name": "Tisza (Tiszaujvaros)", "Country": "Hungary", "Owners": null, "P C [kbbl\/d]": 60.0, "P C [Mt\/a]": 3.0, "Status": "Closed", "Latitude": null, "Longitude": null, "Website": null, "Source": "https:\/\/www.concawe.eu\/refineries-map\/" }, "geometry": null },
{ "type": "Feature", "properties": { "Name": "Zala", "Country": "Hungary", "Owners": null, "P C [kbbl\/d]": 10.0, "P C [Mt\/a]": 0.1, "Status": "Closed", "Latitude": null, "Longitude": null, "Website": null, "Source": "https:\/\/www.concawe.eu\/refineries-map\/" }, "geometry": null },
{ "type": "Feature", "properties": { "Name": "Whitegate", "Country": "Ireland", "Owners": "Phillips66", "P C [kbbl\/d]": 71.0, "P C [Mt\/a]": 3.6, "Status": "Open", "Latitude": 51.820708, "Longitude": -8.240894, "Website": null, "Source": "https:\/\/www.concawe.eu\/refineries-map\/" }, "geometry": { "type": "Point", "coordinates": [ -8.240894, 51.820708 ] } },
{ "type": "Feature", "properties": { "Name": "Augusta", "Country": "Italy", "Owners": "ExxonMobil", "P C [kbbl\/d]": 198.0, "P C [Mt\/a]": 9.9, "Status": "Open", "Latitude": null, "Longitude": null, "Website": null, "Source": "https:\/\/www.concawe.eu\/refineries-map\/" }, "geometry": null },
{ "type": "Feature", "properties": { "Name": "Busalla", "Country": "Italy", "Owners": "IPLOM", "P C [kbbl\/d]": 39.5, "P C [Mt\/a]": 2.0, "Status": "Open", "Latitude": 44.575003, "Longitude": 8.947799, "Website": null, "Source": "https:\/\/www.concawe.eu\/refineries-map\/" }, "geometry": { "type": "Point", "coordinates": [ 8.947799, 44.575003 ] } },
{ "type": "Feature", "properties": { "Name": "Cremona", "Country": "Italy", "Owners": null, "P C [kbbl\/d]": 90.0, "P C [Mt\/a]": 4.5, "Status": "Closed", "Latitude": 45.135356, "Longitude": 9.995982, "Website": null, "Source": "https:\/\/www.concawe.eu\/refineries-map\/" }, "geometry": { "type": "Point", "coordinates": [ 9.995982, 45.135356 ] } },
{ "type": "Feature", "properties": { "Name": "Falconara", "Country": "Italy", "Owners": "API", "P C [kbbl\/d]": 83.0, "P C [Mt\/a]": 4.2, "Status": "Open", "Latitude": 43.638654, "Longitude": 13.380852, "Website": null, "Source": "https:\/\/www.concawe.eu\/refineries-map\/" }, "geometry": { "type": "Point", "coordinates": [ 13.380852, 43.638654 ] } },
{ "type": "Feature", "properties": { "Name": "Gela", "Country": "Italy", "Owners": null, "P C [kbbl\/d]": 105.0, "P C [Mt\/a]": 5.3, "Status": "Closed", "Latitude": null, "Longitude": null, "Website": null, "Source": "https:\/\/www.concawe.eu\/refineries-map\/" }, "geometry": null },
{ "type": "Feature", "properties": { "Name": "Livorno", "Country": "Italy", "Owners": "ENI", "P C [kbbl\/d]": 106.0, "P C [Mt\/a]": 5.3, "Status": "Open", "Latitude": 43.582879, "Longitude": 10.343542, "Website": null, "Source": "https:\/\/www.concawe.eu\/refineries-map\/" }, "geometry": { "type": "Point", "coordinates": [ 10.343542, 43.582879 ] } },
{ "type": "Feature", "properties": { "Name": "Mantova (Frassino)", "Country": "Italy", "Owners": null, "P C [kbbl\/d]": 56.6, "P C [Mt\/a]": 2.8, "Status": "Closed", "Latitude": null, "Longitude": null, "Website": null, "Source": "https:\/\/www.concawe.eu\/refineries-map\/" }, "geometry": null },
{ "type": "Feature", "properties": { "Name": "Porto Marghera", "Country": "Italy", "Owners": null, "P C [kbbl\/d]": 80.0, "P C [Mt\/a]": 4.0, "Status": "Closed", "Latitude": null, "Longitude": null, "Website": null, "Source": "https:\/\/www.concawe.eu\/refineries-map\/" }, "geometry": null },
{ "type": "Feature", "properties": { "Name": "Priolo (+Melilli)", "Country": "Italy", "Owners": "Lukoil", "P C [kbbl\/d]": 320.0, "P C [Mt\/a]": 16.0, "Status": "Open", "Latitude": 37.133516, "Longitude": 15.208555, "Website": null, "Source": "https:\/\/www.concawe.eu\/refineries-map\/" }, "geometry": { "type": "Point", "coordinates": [ 15.208555, 37.133516 ] } },
{ "type": "Feature", "properties": { "Name": "RAM (Milazzo)", "Country": "Italy", "Owners": "ENI\/KPI", "P C [kbbl\/d]": 241.0, "P C [Mt\/a]": 12.1, "Status": "Open", "Latitude": 38.202185, "Longitude": 15.264313, "Website": null, "Source": "https:\/\/www.concawe.eu\/refineries-map\/" }, "geometry": { "type": "Point", "coordinates": [ 15.264313, 38.202185 ] } },
{ "type": "Feature", "properties": { "Name": "Ravenna", "Country": "Italy", "Owners": "ALMA", "P C [kbbl\/d]": 9.5, "P C [Mt\/a]": 0.5, "Status": "Open", "Latitude": 44.480466, "Longitude": 12.256746, "Website": null, "Source": "https:\/\/www.concawe.eu\/refineries-map\/" }, "geometry": { "type": "Point", "coordinates": [ 12.256746, 44.480466 ] } },
{ "type": "Feature", "properties": { "Name": "Roma", "Country": "Italy", "Owners": null, "P C [kbbl\/d]": 92.0, "P C [Mt\/a]": 4.6, "Status": "Closed", "Latitude": null, "Longitude": null, "Website": null, "Source": "https:\/\/www.concawe.eu\/refineries-map\/" }, "geometry": null },
{ "type": "Feature", "properties": { "Name": "Sannazzaro", "Country": "Italy", "Owners": "ENI", "P C [kbbl\/d]": 223.0, "P C [Mt\/a]": 11.2, "Status": "Open", "Latitude": 45.102203, "Longitude": 8.897484, "Website": null, "Source": "https:\/\/www.concawe.eu\/refineries-map\/" }, "geometry": { "type": "Point", "coordinates": [ 8.897484, 45.102203 ] } },
{ "type": "Feature", "properties": { "Name": "Sarroch", "Country": "Italy", "Owners": "SARAS", "P C [kbbl\/d]": 300.0, "P C [Mt\/a]": 15.0, "Status": "Open", "Latitude": 39.085415, "Longitude": 9.014222, "Website": null, "Source": "https:\/\/www.concawe.eu\/refineries-map\/" }, "geometry": { "type": "Point", "coordinates": [ 9.014222, 39.085415 ] } },
{ "type": "Feature", "properties": { "Name": "Taranto", "Country": "Italy", "Owners": "ENI", "P C [kbbl\/d]": 120.0, "P C [Mt\/a]": 6.0, "Status": "Open", "Latitude": 40.489814, "Longitude": 17.192596, "Website": null, "Source": "https:\/\/www.concawe.eu\/refineries-map\/" }, "geometry": { "type": "Point", "coordinates": [ 17.192596, 40.489814 ] } },
{ "type": "Feature", "properties": { "Name": "Trecate", "Country": "Italy", "Owners": "ExxonMobil\/TotalERG", "P C [kbbl\/d]": 126.5, "P C [Mt\/a]": 6.3, "Status": "Open", "Latitude": 45.441829, "Longitude": 8.787286, "Website": null, "Source": "https:\/\/www.concawe.eu\/refineries-map\/" }, "geometry": { "type": "Point", "coordinates": [ 8.787286, 45.441829 ] } },
{ "type": "Feature", "properties": { "Name": "Mazeikiu (Lietuva)", "Country": "Lithuania", "Owners": "PKN Orlen", "P C [kbbl\/d]": 190.0, "P C [Mt\/a]": 9.5, "Status": "Open", "Latitude": 56.381586, "Longitude": 22.176382, "Website": null, "Source": "https:\/\/www.concawe.eu\/refineries-map\/" }, "geometry": { "type": "Point", "coordinates": [ 22.176382, 56.381586 ] } },
{ "type": "Feature", "properties": { "Name": "NRC (Rotterdam)", "Country": "Netherlands", "Owners": "BP", "P C [kbbl\/d]": 358.5, "P C [Mt\/a]": 17.9, "Status": "Open", "Latitude": 51.95383, "Longitude": 4.101922, "Website": null, "Source": "https:\/\/www.concawe.eu\/refineries-map\/" }, "geometry": { "type": "Point", "coordinates": [ 4.101922, 51.95383 ] } },
{ "type": "Feature", "properties": { "Name": "Pernis", "Country": "Netherlands", "Owners": "Shell", "P C [kbbl\/d]": 404.0, "P C [Mt\/a]": 20.2, "Status": "Open", "Latitude": 51.876162, "Longitude": 4.346682, "Website": null, "Source": "https:\/\/www.concawe.eu\/refineries-map\/" }, "geometry": { "type": "Point", "coordinates": [ 4.346682, 51.876162 ] } },
{ "type": "Feature", "properties": { "Name": "Rotterdam", "Country": "Netherlands", "Owners": "ExxonMobil", "P C [kbbl\/d]": 191.0, "P C [Mt\/a]": 9.6, "Status": "Open", "Latitude": 51.870866, "Longitude": 4.301802, "Website": null, "Source": "https:\/\/www.concawe.eu\/refineries-map\/" }, "geometry": { "type": "Point", "coordinates": [ 4.301802, 51.870866 ] } },
{ "type": "Feature", "properties": { "Name": "Rotterdam", "Country": "Netherlands", "Owners": "Gunvor", "P C [kbbl\/d]": 83.6, "P C [Mt\/a]": 4.2, "Status": "Open", "Latitude": 51.933147, "Longitude": 4.167904, "Website": null, "Source": "https:\/\/www.concawe.eu\/refineries-map\/" }, "geometry": { "type": "Point", "coordinates": [ 4.167904, 51.933147 ] } },
{ "type": "Feature", "properties": { "Name": "Rotterdam", "Country": "Netherlands", "Owners": "Vitol", "P C [kbbl\/d]": 10.0, "P C [Mt\/a]": 0.5, "Status": "Open", "Latitude": 51.909651, "Longitude": 4.222527, "Website": null, "Source": "https:\/\/www.concawe.eu\/refineries-map\/" }, "geometry": { "type": "Point", "coordinates": [ 4.222527, 51.909651 ] } },
{ "type": "Feature", "properties": { "Name": "Vlissingen (Zeeland)", "Country": "Netherlands", "Owners": "TOTAL\/Lukoil", "P C [kbbl\/d]": 166.0, "P C [Mt\/a]": 8.3, "Status": "Open", "Latitude": 51.449261, "Longitude": 3.727111, "Website": null, "Source": "https:\/\/www.concawe.eu\/refineries-map\/" }, "geometry": { "type": "Point", "coordinates": [ 3.727111, 51.449261 ] } },
{ "type": "Feature", "properties": { "Name": "Mongstad", "Country": "Norway", "Owners": "Equinor", "P C [kbbl\/d]": 203.0, "P C [Mt\/a]": 10.2, "Status": "Open", "Latitude": 60.802744, "Longitude": 5.010443, "Website": null, "Source": "https:\/\/www.concawe.eu\/refineries-map\/" }, "geometry": { "type": "Point", "coordinates": [ 5.010443, 60.802744 ] } },
{ "type": "Feature", "properties": { "Name": "Slagen", "Country": "Norway", "Owners": "ExxonMobil", "P C [kbbl\/d]": 116.0, "P C [Mt\/a]": 5.8, "Status": "Open", "Latitude": 59.310673, "Longitude": 10.513872, "Website": null, "Source": "https:\/\/www.concawe.eu\/refineries-map\/" }, "geometry": { "type": "Point", "coordinates": [ 10.513872, 59.310673 ] } },
{ "type": "Feature", "properties": { "Name": "Gdansk", "Country": "Poland", "Owners": "Lotos", "P C [kbbl\/d]": 120.0, "P C [Mt\/a]": 6.0, "Status": "Open", "Latitude": 54.345535, "Longitude": 18.723761, "Website": null, "Source": "https:\/\/www.concawe.eu\/refineries-map\/" }, "geometry": { "type": "Point", "coordinates": [ 18.723761, 54.345535 ] } },
{ "type": "Feature", "properties": { "Name": "Jaslo", "Country": "Poland", "Owners": null, "P C [kbbl\/d]": 3.0, "P C [Mt\/a]": 0.2, "Status": "Closed", "Latitude": null, "Longitude": null, "Website": null, "Source": "https:\/\/www.concawe.eu\/refineries-map\/" }, "geometry": null },
{ "type": "Feature", "properties": { "Name": "Jedlicze", "Country": "Poland", "Owners": "PKN Orlen", "P C [kbbl\/d]": 3.0, "P C [Mt\/a]": 0.2, "Status": "Open", "Latitude": 49.71153, "Longitude": 21.655838, "Website": null, "Source": "https:\/\/www.concawe.eu\/refineries-map\/" }, "geometry": { "type": "Point", "coordinates": [ 21.655838, 49.71153 ] } },
{ "type": "Feature", "properties": { "Name": "Plock", "Country": "Poland", "Owners": "PKN Orlen", "P C [kbbl\/d]": 373.0, "P C [Mt\/a]": 18.7, "Status": "Open", "Latitude": 52.588005, "Longitude": 19.653353, "Website": null, "Source": "https:\/\/www.concawe.eu\/refineries-map\/" }, "geometry": { "type": "Point", "coordinates": [ 19.653353, 52.588005 ] } },
{ "type": "Feature", "properties": { "Name": "Trzebinia", "Country": "Poland", "Owners": "PKN Orlen", "P C [kbbl\/d]": 7.2, "P C [Mt\/a]": 0.4, "Status": "Open", "Latitude": 50.160822, "Longitude": 19.442904, "Website": null, "Source": "https:\/\/www.concawe.eu\/refineries-map\/" }, "geometry": { "type": "Point", "coordinates": [ 19.442904, 50.160822 ] } },
{ "type": "Feature", "properties": { "Name": "Leca (Porto)", "Country": "Portugal", "Owners": "Galp Energia", "P C [kbbl\/d]": 91.2, "P C [Mt\/a]": 4.6, "Status": "Open", "Latitude": 41.206839, "Longitude": -8.70622, "Website": null, "Source": "https:\/\/www.concawe.eu\/refineries-map\/" }, "geometry": { "type": "Point", "coordinates": [ -8.70622, 41.206839 ] } },
{ "type": "Feature", "properties": { "Name": "Sines", "Country": "Portugal", "Owners": "Galp Energia", "P C [kbbl\/d]": 212.9, "P C [Mt\/a]": 10.6, "Status": "Open", "Latitude": 37.964168, "Longitude": -8.800219, "Website": null, "Source": "https:\/\/www.concawe.eu\/refineries-map\/" }, "geometry": { "type": "Point", "coordinates": [ -8.800219, 37.964168 ] } },
{ "type": "Feature", "properties": { "Name": "Arpechim (Pitesti)", "Country": "Romania", "Owners": null, "P C [kbbl\/d]": 77.0, "P C [Mt\/a]": 3.9, "Status": "Closed", "Latitude": null, "Longitude": null, "Website": null, "Source": "https:\/\/www.concawe.eu\/refineries-map\/" }, "geometry": null },
{ "type": "Feature", "properties": { "Name": "Navodari (Constanza)", "Country": "Romania", "Owners": "KMG International (Petromidia)", "P C [kbbl\/d]": 105.0, "P C [Mt\/a]": 5.3, "Status": "Open", "Latitude": 44.345977, "Longitude": 28.654969, "Website": null, "Source": "https:\/\/www.concawe.eu\/refineries-map\/" }, "geometry": { "type": "Point", "coordinates": [ 28.654969, 44.345977 ] } },
{ "type": "Feature", "properties": { "Name": "Petrobrazi (Ploiesti)", "Country": "Romania", "Owners": "OMV Petrom", "P C [kbbl\/d]": 56.0, "P C [Mt\/a]": 2.8, "Status": "Open", "Latitude": 44.882197, "Longitude": 26.016058, "Website": null, "Source": "https:\/\/www.concawe.eu\/refineries-map\/" }, "geometry": { "type": "Point", "coordinates": [ 26.016058, 44.882197 ] } },
{ "type": "Feature", "properties": { "Name": "Petrotel (Ploiesti)", "Country": "Romania", "Owners": "Petrotel-Lukoil", "P C [kbbl\/d]": 47.8, "P C [Mt\/a]": 2.4, "Status": "Open", "Latitude": 44.942605, "Longitude": 26.073528, "Website": null, "Source": "https:\/\/www.concawe.eu\/refineries-map\/" }, "geometry": { "type": "Point", "coordinates": [ 26.073528, 44.942605 ] } },
{ "type": "Feature", "properties": { "Name": "Ploiesti (Vega)", "Country": "Romania", "Owners": "KMG International and the Romanian State", "P C [kbbl\/d]": 8.0, "P C [Mt\/a]": 0.4, "Status": "Open", "Latitude": 44.962655, "Longitude": 26.024366, "Website": null, "Source": "https:\/\/www.concawe.eu\/refineries-map\/" }, "geometry": { "type": "Point", "coordinates": [ 26.024366, 44.962655 ] } },
{ "type": "Feature", "properties": { "Name": "Pancevo", "Country": "Serbia", "Owners": "NIS", "P C [kbbl\/d]": 96.0, "P C [Mt\/a]": 4.8, "Status": "Open", "Latitude": 44.830433, "Longitude": 20.681363, "Website": "https:\/\/www.nis.eu\/en\/", "Source": "http:\/\/abarrelfull.wikidot.com\/pancevo-refinery" }, "geometry": { "type": "Point", "coordinates": [ 20.681363, 44.830433 ] } },
{ "type": "Feature", "properties": { "Name": "Slovnaft (Bratislava)", "Country": "Slovakia", "Owners": "MOL", "P C [kbbl\/d]": 115.0, "P C [Mt\/a]": 5.8, "Status": "Open", "Latitude": 48.128371, "Longitude": 17.176454, "Website": null, "Source": "https:\/\/www.concawe.eu\/refineries-map\/" }, "geometry": { "type": "Point", "coordinates": [ 17.176454, 48.128371 ] } },
{ "type": "Feature", "properties": { "Name": "ASESA", "Country": "Spain", "Owners": "CEPSA\/REPSOL", "P C [kbbl\/d]": 20.0, "P C [Mt\/a]": 1.0, "Status": "Open", "Latitude": 41.104735, "Longitude": 1.212037, "Website": null, "Source": "https:\/\/www.concawe.eu\/refineries-map\/" }, "geometry": { "type": "Point", "coordinates": [ 1.212037, 41.104735 ] } },
{ "type": "Feature", "properties": { "Name": "Cadiz: San Roque (Algeciras)", "Country": "Spain", "Owners": "CEPSA", "P C [kbbl\/d]": 240.0, "P C [Mt\/a]": 12.0, "Status": "Open", "Latitude": 36.185091, "Longitude": -5.38819, "Website": null, "Source": "https:\/\/www.concawe.eu\/refineries-map\/" }, "geometry": { "type": "Point", "coordinates": [ -5.38819, 36.185091 ] } },
{ "type": "Feature", "properties": { "Name": "Cartagena", "Country": "Spain", "Owners": "Repsol", "P C [kbbl\/d]": 220.0, "P C [Mt\/a]": 11.0, "Status": "Open", "Latitude": 37.577853, "Longitude": -0.916682, "Website": null, "Source": "https:\/\/www.concawe.eu\/refineries-map\/" }, "geometry": { "type": "Point", "coordinates": [ -0.916682, 37.577853 ] } },
{ "type": "Feature", "properties": { "Name": "Castellon", "Country": "Spain", "Owners": "BP", "P C [kbbl\/d]": 104.5, "P C [Mt\/a]": 5.2, "Status": "Open", "Latitude": 39.956473, "Longitude": -0.00386, "Website": null, "Source": "https:\/\/www.concawe.eu\/refineries-map\/" }, "geometry": { "type": "Point", "coordinates": [ -0.00386, 39.956473 ] } },
{ "type": "Feature", "properties": { "Name": "Huelva: La Rabida", "Country": "Spain", "Owners": "CEPSA", "P C [kbbl\/d]": 100.0, "P C [Mt\/a]": 5.0, "Status": "Open", "Latitude": 37.18572, "Longitude": -6.898643, "Website": null, "Source": "https:\/\/www.concawe.eu\/refineries-map\/" }, "geometry": { "type": "Point", "coordinates": [ -6.898643, 37.18572 ] } },
{ "type": "Feature", "properties": { "Name": "La Coruna", "Country": "Spain", "Owners": "Repsol", "P C [kbbl\/d]": 120.0, "P C [Mt\/a]": 6.0, "Status": "Open", "Latitude": 43.350332, "Longitude": -8.439906, "Website": null, "Source": "https:\/\/www.concawe.eu\/refineries-map\/" }, "geometry": { "type": "Point", "coordinates": [ -8.439906, 43.350332 ] } },
{ "type": "Feature", "properties": { "Name": "Lubrisur", "Country": "Spain", "Owners": "CEPSA", "P C [kbbl\/d]": 0.0, "P C [Mt\/a]": 0.0, "Status": "Open", "Latitude": 36.18569, "Longitude": -5.389533, "Website": null, "Source": "https:\/\/www.concawe.eu\/refineries-map\/" }, "geometry": { "type": "Point", "coordinates": [ -5.389533, 36.18569 ] } },
{ "type": "Feature", "properties": { "Name": "Petronor (Bilbao)", "Country": "Spain", "Owners": "Repsol", "P C [kbbl\/d]": 220.0, "P C [Mt\/a]": 11.0, "Status": "Open", "Latitude": 43.325286, "Longitude": -3.113107, "Website": null, "Source": "https:\/\/www.concawe.eu\/refineries-map\/" }, "geometry": { "type": "Point", "coordinates": [ -3.113107, 43.325286 ] } },
{ "type": "Feature", "properties": { "Name": "Puertollano", "Country": "Spain", "Owners": "Repsol", "P C [kbbl\/d]": 150.0, "P C [Mt\/a]": 7.5, "Status": "Open", "Latitude": 38.676838, "Longitude": -4.061074, "Website": null, "Source": "https:\/\/www.concawe.eu\/refineries-map\/" }, "geometry": { "type": "Point", "coordinates": [ -4.061074, 38.676838 ] } },
{ "type": "Feature", "properties": { "Name": "Tarragona", "Country": "Spain", "Owners": "Repsol", "P C [kbbl\/d]": 186.0, "P C [Mt\/a]": 9.3, "Status": "Open", "Latitude": 41.173643, "Longitude": 1.227838, "Website": null, "Source": "https:\/\/www.concawe.eu\/refineries-map\/" }, "geometry": { "type": "Point", "coordinates": [ 1.227838, 41.173643 ] } },
{ "type": "Feature", "properties": { "Name": "Teneriffe", "Country": "Spain", "Owners": "CEPSA", "P C [kbbl\/d]": 87.0, "P C [Mt\/a]": 4.4, "Status": "Open", "Latitude": 28.453863, "Longitude": -16.264659, "Website": null, "Source": "https:\/\/www.concawe.eu\/refineries-map\/" }, "geometry": { "type": "Point", "coordinates": [ -16.264659, 28.453863 ] } },
{ "type": "Feature", "properties": { "Name": "Gothenburg", "Country": "Sweden", "Owners": "Nynas", "P C [kbbl\/d]": 13.0, "P C [Mt\/a]": 0.7, "Status": "Open", "Latitude": 57.698772, "Longitude": 11.850362, "Website": null, "Source": "https:\/\/www.concawe.eu\/refineries-map\/" }, "geometry": { "type": "Point", "coordinates": [ 11.850362, 57.698772 ] } },
{ "type": "Feature", "properties": { "Name": "Gothenburg", "Country": "Sweden", "Owners": "Preem", "P C [kbbl\/d]": 106.0, "P C [Mt\/a]": 5.3, "Status": "Open", "Latitude": 57.708991, "Longitude": 11.83225, "Website": null, "Source": "https:\/\/www.concawe.eu\/refineries-map\/" }, "geometry": { "type": "Point", "coordinates": [ 11.83225, 57.708991 ] } },
{ "type": "Feature", "properties": { "Name": "Gothenburg", "Country": "Sweden", "Owners": "St1", "P C [kbbl\/d]": 80.0, "P C [Mt\/a]": 4.0, "Status": "Open", "Latitude": 57.703448, "Longitude": 11.878483, "Website": null, "Source": "https:\/\/www.concawe.eu\/refineries-map\/" }, "geometry": { "type": "Point", "coordinates": [ 11.878483, 57.703448 ] } },
{ "type": "Feature", "properties": { "Name": "Lysekil", "Country": "Sweden", "Owners": "Preem", "P C [kbbl\/d]": 210.0, "P C [Mt\/a]": 10.5, "Status": "Open", "Latitude": 58.348471, "Longitude": 11.417096, "Website": null, "Source": "https:\/\/www.concawe.eu\/refineries-map\/" }, "geometry": { "type": "Point", "coordinates": [ 11.417096, 58.348471 ] } },
{ "type": "Feature", "properties": { "Name": "Nynasham", "Country": "Sweden", "Owners": "Nynas", "P C [kbbl\/d]": 28.0, "P C [Mt\/a]": 1.4, "Status": "Open", "Latitude": 58.920481, "Longitude": 17.961514, "Website": null, "Source": "https:\/\/www.concawe.eu\/refineries-map\/" }, "geometry": { "type": "Point", "coordinates": [ 17.961514, 58.920481 ] } },
{ "type": "Feature", "properties": { "Name": "Collombey", "Country": "Switzerland", "Owners": null, "P C [kbbl\/d]": 52.3, "P C [Mt\/a]": 2.6, "Status": "Closed", "Latitude": 46.290622, "Longitude": 6.948048, "Website": null, "Source": "https:\/\/www.concawe.eu\/refineries-map\/" }, "geometry": { "type": "Point", "coordinates": [ 6.948048, 46.290622 ] } },
{ "type": "Feature", "properties": { "Name": "Cressier", "Country": "Switzerland", "Owners": "Varo Holdings", "P C [kbbl\/d]": 68.0, "P C [Mt\/a]": 3.4, "Status": "Open", "Latitude": 47.040145, "Longitude": 7.033758, "Website": null, "Source": "https:\/\/www.concawe.eu\/refineries-map\/" }, "geometry": { "type": "Point", "coordinates": [ 7.033758, 47.040145 ] } },
{ "type": "Feature", "properties": { "Name": "Izmit", "Country": "Turkey", "Owners": "Tupras", "P C [kbbl\/d]": 220.0, "P C [Mt\/a]": 11.0, "Status": "Open", "Latitude": 40.753722, "Longitude": 29.764524, "Website": "http:\/\/www.tupras.com.tr\/", "Source": "http:\/\/abarrelfull.wikidot.com\/izmit-refinery" }, "geometry": { "type": "Point", "coordinates": [ 29.764524, 40.753722 ] } },
{ "type": "Feature", "properties": { "Name": "Kremenchuk", "Country": "Ukraine", "Owners": "Ukrtatnafta", "P C [kbbl\/d]": 372.0, "P C [Mt\/a]": 18.6, "Status": "Open", "Latitude": 49.175862, "Longitude": 33.4594, "Website": "https:\/\/ukrtatnafta.com\/", "Source": "http:\/\/abarrelfull.wikidot.com\/kremenchuk-refinery" }, "geometry": { "type": "Point", "coordinates": [ 33.4594, 49.175862 ] } },
{ "type": "Feature", "properties": { "Name": "Linos", "Country": "Ukraine", "Owners": "BP-TNK", "P C [kbbl\/d]": 160.0, "P C [Mt\/a]": 8.0, "Status": "Open", "Latitude": null, "Longitude": null, "Website": null, "Source": "http:\/\/abarrelfull.wikidot.com\/linos-refinery" }, "geometry": null },
{ "type": "Feature", "properties": { "Name": "Coryton", "Country": "United Kingdom", "Owners": null, "P C [kbbl\/d]": 172.0, "P C [Mt\/a]": 8.6, "Status": "Closed", "Latitude": 51.512626, "Longitude": 0.521763, "Website": null, "Source": "https:\/\/www.concawe.eu\/refineries-map\/" }, "geometry": { "type": "Point", "coordinates": [ 0.521763, 51.512626 ] } },
{ "type": "Feature", "properties": { "Name": "Dundee: Camperdown Refinery", "Country": "United Kingdom", "Owners": null, "P C [kbbl\/d]": 12.0, "P C [Mt\/a]": 0.6, "Status": "Closed", "Latitude": null, "Longitude": null, "Website": null, "Source": "https:\/\/www.concawe.eu\/refineries-map\/" }, "geometry": null },
{ "type": "Feature", "properties": { "Name": "Eastham", "Country": "United Kingdom", "Owners": "Nynas\/Shell", "P C [kbbl\/d]": 27.0, "P C [Mt\/a]": 1.4, "Status": "Open", "Latitude": 53.302366, "Longitude": -2.924677, "Website": null, "Source": "https:\/\/www.concawe.eu\/refineries-map\/" }, "geometry": { "type": "Point", "coordinates": [ -2.924677, 53.302366 ] } },
{ "type": "Feature", "properties": { "Name": "Fawley", "Country": "United Kingdom", "Owners": "ExxonMobil", "P C [kbbl\/d]": 260.0, "P C [Mt\/a]": 13.0, "Status": "Open", "Latitude": 50.840087, "Longitude": -1.383585, "Website": null, "Source": "https:\/\/www.concawe.eu\/refineries-map\/" }, "geometry": { "type": "Point", "coordinates": [ -1.383585, 50.840087 ] } },
{ "type": "Feature", "properties": { "Name": "Grangemouth", "Country": "United Kingdom", "Owners": "Petroineos (Ineos\/Petrochina)", "P C [kbbl\/d]": 195.0, "P C [Mt\/a]": 9.8, "Status": "Open", "Latitude": 56.01475, "Longitude": -3.698426, "Website": null, "Source": "https:\/\/www.concawe.eu\/refineries-map\/" }, "geometry": { "type": "Point", "coordinates": [ -3.698426, 56.01475 ] } },
{ "type": "Feature", "properties": { "Name": "Humberside (Lindsey Oil Refinery)", "Country": "United Kingdom", "Owners": "TOTAL", "P C [kbbl\/d]": 206.7, "P C [Mt\/a]": 10.3, "Status": "Open", "Latitude": 53.640395, "Longitude": -0.256346, "Website": null, "Source": "https:\/\/www.concawe.eu\/refineries-map\/" }, "geometry": { "type": "Point", "coordinates": [ -0.256346, 53.640395 ] } },
{ "type": "Feature", "properties": { "Name": "Killingholme (Humber)", "Country": "United Kingdom", "Owners": "Phillips66", "P C [kbbl\/d]": 221.0, "P C [Mt\/a]": 11.1, "Status": "Open", "Latitude": 53.632601, "Longitude": -0.24591, "Website": null, "Source": "https:\/\/www.concawe.eu\/refineries-map\/" }, "geometry": { "type": "Point", "coordinates": [ -0.24591, 53.632601 ] } },
{ "type": "Feature", "properties": { "Name": "Milford Haven", "Country": "United Kingdom", "Owners": null, "P C [kbbl\/d]": 128.3, "P C [Mt\/a]": 6.4, "Status": "Closed", "Latitude": null, "Longitude": null, "Website": null, "Source": "https:\/\/www.concawe.eu\/refineries-map\/" }, "geometry": null },
{ "type": "Feature", "properties": { "Name": "Pembroke", "Country": "United Kingdom", "Owners": "Valero", "P C [kbbl\/d]": 270.0, "P C [Mt\/a]": 13.5, "Status": "Open", "Latitude": 51.68657, "Longitude": -5.028985, "Website": null, "Source": "https:\/\/www.concawe.eu\/refineries-map\/" }, "geometry": { "type": "Point", "coordinates": [ -5.028985, 51.68657 ] } },
{ "type": "Feature", "properties": { "Name": "Stanlow", "Country": "United Kingdom", "Owners": "Essar", "P C [kbbl\/d]": 195.0, "P C [Mt\/a]": 9.8, "Status": "Open", "Latitude": 53.276787, "Longitude": -2.843275, "Website": null, "Source": "https:\/\/www.concawe.eu\/refineries-map\/" }, "geometry": { "type": "Point", "coordinates": [ -2.843275, 53.276787 ] } },
{ "type": "Feature", "properties": { "Name": "Teesside", "Country": "United Kingdom", "Owners": null, "P C [kbbl\/d]": 111.2, "P C [Mt\/a]": 5.6, "Status": "Closed", "Latitude": null, "Longitude": null, "Website": null, "Source": "https:\/\/www.concawe.eu\/refineries-map\/" }, "geometry": null }
]
}
